{
"type": "FeatureCollection",
"name": "autres_ot",
"crs": { "type": "name", "properties": { "name": "urn:ogc:def:crs:OGC:1.3:CRS84" } },
"features": [
{ "type": "Feature", "properties": { "id": null, "nom": "via columbani", "layer": "Autres", "path": "/home/rdoisy/Documents/04_VISUELS/CARTE_UTILISATEURS/Utilisateurs/2021-utilisateurs/autres-geotrek.geojson" }, "geometry": { "type": "Point", "coordinates": [ 9.389057798420923, 47.433083287441313 ] } },
{ "type": "Feature", "properties": { "id": "1", "nom": "Gite Le Flourou", "layer": "Autres", "path": "/home/rdoisy/Documents/04_VISUELS/CARTE_UTILISATEURS/Utilisateurs/2021-utilisateurs/autres-geotrek.geojson" }, "geometry": { "type": "Point", "coordinates": [ 6.505603239875996, 44.9750483059888 ] } },
{ "type": "Feature", "properties": { "id": "2", "nom": "Fablac Leman", "layer": "Autres", "path": "/home/rdoisy/Documents/04_VISUELS/CARTE_UTILISATEURS/Utilisateurs/2021-utilisateurs/autres-geotrek.geojson" }, "geometry": { "type": "Point", "coordinates": [ 6.455781527853116, 46.348641145263663 ] } },
{ "type": "Feature", "properties": { "id": "3", "nom": "LPO Isère", "layer": "Autres", "path": "/home/rdoisy/Documents/04_VISUELS/CARTE_UTILISATEURS/Utilisateurs/2021-utilisateurs/autres-geotrek.geojson" }, "geometry": { "type": "Point", "coordinates": [ 5.73421367183539, 45.187913469866828 ] } },
{ "type": "Feature", "properties": { "id": "5", "nom": "Association Saint-Colomban", "layer": "Autres", "path": "/home/rdoisy/Documents/04_VISUELS/CARTE_UTILISATEURS/Utilisateurs/2021-utilisateurs/autres-geotrek.geojson" }, "geometry": { "type": "Point", "coordinates": [ 6.379217420936769, 47.816737569947087 ] } },
{ "type": "Feature", "properties": { "id": "6", "nom": "Espace Nordique Jurassien", "layer": "Autres", "path": "/home/rdoisy/Documents/04_VISUELS/CARTE_UTILISATEURS/Utilisateurs/2021-utilisateurs/autres-geotrek.geojson" }, "geometry": { "type": "Point", "coordinates": [ 5.910010986186645, 46.74589862742409 ] } },
{ "type": "Feature", "properties": { "id": "7", "nom": "CDRP Haute-Loire", "layer": "Autres", "path": "/home/rdoisy/Documents/04_VISUELS/CARTE_UTILISATEURS/Utilisateurs/2021-utilisateurs/autres-geotrek.geojson" }, "geometry": { "type": "Point", "coordinates": [ 3.884533744698806, 45.045597277131705 ] } },
{ "type": "Feature", "properties": { "id": "8", "nom": "Maison des Vins & du Tourisme - Rhône Crussol", "layer": "Autres", "path": "/home/rdoisy/Documents/04_VISUELS/CARTE_UTILISATEURS/Utilisateurs/2021-utilisateurs/autres-geotrek.geojson" }, "geometry": { "type": "Point", "coordinates": [ 4.895064457529598, 44.933974661882537 ] } },
{ "type": "Feature", "properties": { "id": "9", "nom": "Conservatoire d'Espaces Naturels de Haute-Savoie", "layer": "Autres", "path": "/home/rdoisy/Documents/04_VISUELS/CARTE_UTILISATEURS/Utilisateurs/2021-utilisateurs/autres-geotrek.geojson" }, "geometry": { "type": "Point", "coordinates": [ 6.126771848117652, 45.900495982465792 ] } },
{ "type": "Feature", "properties": { "id": null, "nom": "Itinéraires Touristiques des Abbayes Chalaisiennes", "layer": "Autres", "path": "/home/rdoisy/Documents/04_VISUELS/CARTE_UTILISATEURS/Utilisateurs/2021-utilisateurs/autres-geotrek.geojson" }, "geometry": { "type": "Point", "coordinates": [ 6.455457547340482, 44.50028495722605 ] } },
{ "type": "Feature", "properties": { "id": "1", "nom": "Ardeche Hautes Vallées", "layer": "Office de Tourisme", "path": "/home/rdoisy/Office de Tourisme.shp" }, "geometry": { "type": "Point", "coordinates": [ 4.422812641541692, 44.907408432235968 ] } },
{ "type": "Feature", "properties": { "id": "2", "nom": "Coeur d'Ardeche", "layer": "Office de Tourisme", "path": "/home/rdoisy/Office de Tourisme.shp" }, "geometry": { "type": "Point", "coordinates": [ 4.599534552031632, 44.734762424137863 ] } },
{ "type": "Feature", "properties": { "id": "3", "nom": "Grand Carcassone tourisme", "layer": "Office de Tourisme", "path": "/home/rdoisy/Office de Tourisme.shp" }, "geometry": { "type": "Point", "coordinates": [ 2.34985897353405, 43.212987007731385 ] } },
{ "type": "Feature", "properties": { "id": "4", "nom": "Cévennes d'Ardeche", "layer": "Office de Tourisme", "path": "/home/rdoisy/Office de Tourisme.shp" }, "geometry": { "type": "Point", "coordinates": [ 4.128494267413105, 44.407789069196269 ] } },
{ "type": "Feature", "properties": { "id": "5", "nom": "Agglomeration de Compiègne", "layer": "Office de Tourisme", "path": "/home/rdoisy/Office de Tourisme.shp" }, "geometry": { "type": "Point", "coordinates": [ 2.822323780462459, 49.419324314373455 ] } },
{ "type": "Feature", "properties": { "id": "6", "nom": "Montagne d'Ardeche Coucouron", "layer": "Office de Tourisme", "path": "/home/rdoisy/Office de Tourisme.shp" }, "geometry": { "type": "Point", "coordinates": [ 3.97398671905463, 44.800833169573743 ] } },
{ "type": "Feature", "properties": { "id": "7", "nom": "Montagne d'Ardeche Sainte Eulalie", "layer": "Office de Tourisme", "path": "/home/rdoisy/Office de Tourisme.shp" }, "geometry": { "type": "Point", "coordinates": [ 4.188684186705685, 44.810781937613356 ] } },
{ "type": "Feature", "properties": { "id": "8", "nom": "Montagne d'Ardeche saint laurent les bains", "layer": "Office de Tourisme", "path": "/home/rdoisy/Office de Tourisme.shp" }, "geometry": { "type": "Point", "coordinates": [ 3.969975781458395, 44.607003250664953 ] } },
{ "type": "Feature", "properties": { "id": "9", "nom": "Vallée de la Drome Crest", "layer": "Office de Tourisme", "path": "/home/rdoisy/Office de Tourisme.shp" }, "geometry": { "type": "Point", "coordinates": [ 5.022333500456732, 44.727975088337573 ] } },
{ "type": "Feature", "properties": { "id": "10", "nom": "Vallée de la Drome Saillans", "layer": "Office de Tourisme", "path": "/home/rdoisy/Office de Tourisme.shp" }, "geometry": { "type": "Point", "coordinates": [ 5.196151492126998, 44.695891159637959 ] } },
{ "type": "Feature", "properties": { "id": "11", "nom": "Vallée de la Drome Saou", "layer": "Office de Tourisme", "path": "/home/rdoisy/Office de Tourisme.shp" }, "geometry": { "type": "Point", "coordinates": [ 5.06286001392905, 44.645791474602511 ] } },
{ "type": "Feature", "properties": { "id": "12", "nom": "Vallée de la Drome Livron sur Drome", "layer": "Office de Tourisme", "path": "/home/rdoisy/Office de Tourisme.shp" }, "geometry": { "type": "Point", "coordinates": [ 4.844135564931375, 44.775475406182366 ] } },
{ "type": "Feature", "properties": { "id": "13", "nom": "Val de Drome Mirmande", "layer": "Office de Tourisme", "path": "/home/rdoisy/Office de Tourisme.shp" }, "geometry": { "type": "Point", "coordinates": [ 4.83547193972351, 44.698981750476413 ] } },
{ "type": "Feature", "properties": { "id": "14", "nom": "Pays de Lamastre", "layer": "Office de Tourisme", "path": "/home/rdoisy/Office de Tourisme.shp" }, "geometry": { "type": "Point", "coordinates": [ 4.58011960859706, 44.985129618173886 ] } },
{ "type": "Feature", "properties": { "id": "15", "nom": "Pays des Ecrins Argentiere Bessee", "layer": "Office de Tourisme", "path": "/home/rdoisy/Office de Tourisme.shp" }, "geometry": { "type": "Point", "coordinates": [ 6.557977112300132, 44.78918615057124 ] } },
{ "type": "Feature", "properties": { "id": "16", "nom": "Puy saint vincent", "layer": "Office de Tourisme", "path": "/home/rdoisy/Office de Tourisme.shp" }, "geometry": { "type": "Point", "coordinates": [ 6.494925173287379, 44.827135621703398 ] } },
{ "type": "Feature", "properties": { "id": "17", "nom": "Pays des Ecrins Vallouise", "layer": "Office de Tourisme", "path": "/home/rdoisy/Office de Tourisme.shp" }, "geometry": { "type": "Point", "coordinates": [ 6.487865923118012, 44.845429860920511 ] } },
{ "type": "Feature", "properties": { "id": "18", "nom": "Ardeche Grand Air Annonay", "layer": "Office de Tourisme", "path": "/home/rdoisy/Office de Tourisme.shp" }, "geometry": { "type": "Point", "coordinates": [ 4.671392504536892, 45.243496723209013 ] } },
{ "type": "Feature", "properties": { "id": "19", "nom": "Ardeche Grand Air Lalouvesc", "layer": "Office de Tourisme", "path": "/home/rdoisy/Office de Tourisme.shp" }, "geometry": { "type": "Point", "coordinates": [ 4.534571401254257, 45.120595558968844 ] } },
{ "type": "Feature", "properties": { "id": "20", "nom": "Vallée du Tarn", "layer": "Office de Tourisme", "path": "/home/rdoisy/Office de Tourisme.shp" }, "geometry": { "type": "Point", "coordinates": [ 2.379032605675405, 43.946933294761607 ] } },
{ "type": "Feature", "properties": { "id": "21", "nom": "Centre Tarn", "layer": "Office de Tourisme", "path": "/home/rdoisy/Office de Tourisme.shp" }, "geometry": { "type": "Point", "coordinates": [ 2.188182116605433, 43.774574233865565 ] } },
{ "type": "Feature", "properties": { "id": "22", "nom": "Accueil de Gaillac", "layer": "Office de Tourisme", "path": "/home/rdoisy/Office de Tourisme.shp" }, "geometry": { "type": "Point", "coordinates": [ 1.894303920827829, 43.903076349016906 ] } },
{ "type": "Feature", "properties": { "id": "23", "nom": "Sud Vienne Poitou", "layer": "Office de Tourisme", "path": "/home/rdoisy/Office de Tourisme.shp" }, "geometry": { "type": "Point", "coordinates": [ 0.871270709217887, 46.42564871346805 ] } },
{ "type": "Feature", "properties": { "id": "24", "nom": "Jura tourisme Jurabsolu", "layer": "Office de Tourisme", "path": "/home/rdoisy/Office de Tourisme.shp" }, "geometry": { "type": "Point", "coordinates": [ 5.561505170927095, 46.671246086756945 ] } },
{ "type": "Feature", "properties": { "id": "25", "nom": "Maison du Sidobre Vals et Plateaux", "layer": "Office de Tourisme", "path": "/home/rdoisy/Office de Tourisme.shp" }, "geometry": { "type": "Point", "coordinates": [ 2.407392996555658, 43.633408420802773 ] } },
{ "type": "Feature", "properties": { "id": "26", "nom": "Castres et Mazamet", "layer": "Office de Tourisme", "path": "/home/rdoisy/Office de Tourisme.shp" }, "geometry": { "type": "Point", "coordinates": [ 2.264350679474674, 43.603446323555531 ] } },
{ "type": "Feature", "properties": { "id": "27", "nom": "Castres et Mazamet", "layer": "Office de Tourisme", "path": "/home/rdoisy/Office de Tourisme.shp" }, "geometry": { "type": "Point", "coordinates": [ 2.37347805243699, 43.495978478857197 ] } },
{ "type": "Feature", "properties": { "id": "28", "nom": "Albi tourisme", "layer": "Office de Tourisme", "path": "/home/rdoisy/Office de Tourisme.shp" }, "geometry": { "type": "Point", "coordinates": [ 2.142784844157492, 43.928502450432489 ] } },
{ "type": "Feature", "properties": { "id": "29", "nom": "Carmausin Ségala", "layer": "Office de Tourisme", "path": "/home/rdoisy/Office de Tourisme.shp" }, "geometry": { "type": "Point", "coordinates": [ 2.155681918883356, 44.052049359893168 ] } },
{ "type": "Feature", "properties": { "id": "30", "nom": "Aux sources du canal de Midi", "layer": "Office de Tourisme", "path": "/home/rdoisy/Office de Tourisme.shp" }, "geometry": { "type": "Point", "coordinates": [ 2.005480774547771, 43.458405531156615 ] } },
{ "type": "Feature", "properties": { "id": "31", "nom": "Terres d'Autan - Montagne noire Dourgne", "layer": "Office de Tourisme", "path": "/home/rdoisy/Office de Tourisme.shp" }, "geometry": { "type": "Point", "coordinates": [ 2.139999612928748, 43.48452806393842 ] } },
{ "type": "Feature", "properties": { "id": "31", "nom": "Terres d'Autan - Montagne noire Puylaurens", "layer": "Office de Tourisme", "path": "/home/rdoisy/Office de Tourisme.shp" }, "geometry": { "type": "Point", "coordinates": [ 2.011364435697647, 43.571208261146019 ] } },
{ "type": "Feature", "properties": { "id": "32", "nom": "Lautrécois-Pays d'Agout saint paul cap de joux", "layer": "Office de Tourisme", "path": "/home/rdoisy/Office de Tourisme.shp" }, "geometry": { "type": "Point", "coordinates": [ 1.974093791303384, 43.646886493466518 ] } },
{ "type": "Feature", "properties": { "id": "33", "nom": "Lautrécois-Pays d'Agout Lautrec", "layer": "Office de Tourisme", "path": "/home/rdoisy/Office de Tourisme.shp" }, "geometry": { "type": "Point", "coordinates": [ 2.13789670742271, 43.706137920610324 ] } },
{ "type": "Feature", "properties": { "id": "34", "nom": "Tarn-Agout Lavaur", "layer": "Office de Tourisme", "path": "/home/rdoisy/Office de Tourisme.shp" }, "geometry": { "type": "Point", "coordinates": [ 1.816644334372516, 43.700315687468368 ] } },
{ "type": "Feature", "properties": { "id": "35", "nom": "Tarn-Agout Saint sulpice la pointe", "layer": "Office de Tourisme", "path": "/home/rdoisy/Office de Tourisme.shp" }, "geometry": { "type": "Point", "coordinates": [ 1.684742942206503, 43.773117574887294 ] } },
{ "type": "Feature", "properties": { "id": "36", "nom": "Serre-Chevalier-Vallée", "layer": "Office de Tourisme", "path": "/home/rdoisy/Office de Tourisme.shp" }, "geometry": { "type": "Point", "coordinates": [ 6.637040666257714, 44.901062908853511 ] } },
{ "type": "Feature", "properties": { "id": "37", "nom": "Serre-Chevalier-Vallée la salle les alpes", "layer": "Office de Tourisme", "path": "/home/rdoisy/Office de Tourisme.shp" }, "geometry": { "type": "Point", "coordinates": [ 6.565452393711712, 44.944750159055424 ] } },
{ "type": "Feature", "properties": { "id": "38", "nom": "Serre-Chevalier-Vallée Chantermerle", "layer": "Office de Tourisme", "path": "/home/rdoisy/Office de Tourisme.shp" }, "geometry": { "type": "Point", "coordinates": [ 6.591582113191002, 44.932968328169679 ] } },
{ "type": "Feature", "properties": { "id": "39", "nom": "Serre-Chevalier-Vallée les monetiers les bains", "layer": "Office de Tourisme", "path": "/home/rdoisy/Office de Tourisme.shp" }, "geometry": { "type": "Point", "coordinates": [ 6.508360746356275, 44.975207017465024 ] } }
]
}
